,City,Latitude,Longitude,Max Temp,Humidity,Cloudiness,Wind Speed,Country,Date
0,port alfred,-33.59,26.89,59.67,34,0,9.48,ZA,1594600970
1,jiuquan,39.74,98.52,84.92,23,100,10.87,CN,1594601138
2,beringovskiy,63.05,179.32,51.19,81,100,9.42,RU,1594601042
3,gambela,8.25,34.58,69.64,90,100,1.99,ET,1594601164
4,punta arenas,-53.15,-70.92,33.8,83,24,8.05,CL,1594601164
5,little chute,44.28,-88.32,78.01,33,20,8.05,US,1594601164
6,chino valley,34.76,-112.45,93.99,25,20,12.75,US,1594601164
7,esperance,-33.87,121.9,48.2,61,0,20.8,AU,1594601056
8,arraial do cabo,-22.97,-42.03,72.46,78,92,13.87,BR,1594600948
9,ushuaia,-54.8,-68.3,35.6,80,40,18.34,AR,1594601165
10,dubai,25.26,55.3,98.6,42,0,6.93,AE,1594600888
11,ribeira grande,38.52,-28.7,68.7,82,8,15.82,PT,1594601165
12,hobart,-42.88,147.33,46.0,87,75,5.82,AU,1594600950
13,atar,20.52,-13.05,92.37,36,94,7.36,MR,1594600979
14,albany,42.6,-73.97,82.99,54,95,1.99,US,1594601166
15,bathsheba,13.22,-59.52,82.4,78,20,14.99,BB,1594600962
16,kruisfontein,-34.0,24.73,56.14,35,0,11.14,ZA,1594601166
17,san francisco,37.77,-122.42,75.2,49,1,23.04,US,1594600903
18,rikitea,-23.12,-134.97,71.2,73,90,14.18,PF,1594601167
19,batagay,67.63,134.63,80.49,51,69,2.93,RU,1594600963
20,de aar,-30.65,24.01,42.03,54,0,12.3,ZA,1594601167
21,cidreira,-30.18,-50.21,54.86,85,36,6.8,BR,1594601167
22,ulladulla,-35.35,150.47,55.4,76,40,5.82,AU,1594601111
23,san patricio,19.22,-104.7,84.2,79,75,13.87,MX,1594600966
24,egvekinot,66.32,-179.17,57.85,47,100,6.06,RU,1594600985
25,fairbanks,64.84,-147.72,71.6,28,40,14.99,US,1594601133
26,chuy,-33.7,-53.46,44.02,70,100,8.97,UY,1594600970
27,georgetown,5.41,100.34,80.6,94,20,4.88,MY,1594601036
28,vila velha,-20.33,-40.29,73.4,73,75,6.93,BR,1594600916
29,cherskiy,68.75,161.3,54.93,88,100,2.39,RU,1594601003
30,bethel,41.37,-73.41,75.99,83,11,6.91,US,1594601152
31,volgorechensk,57.44,41.16,57.2,100,7,4.47,RU,1594601170
32,kapaa,22.08,-159.32,82.4,69,40,20.8,US,1594601170
33,port lincoln,-34.73,135.87,56.12,75,49,3.0,AU,1594600960
34,lebu,-37.62,-73.65,48.31,88,100,8.41,CL,1594601170
35,plettenberg bay,-34.05,23.37,63.97,31,0,12.53,ZA,1594601171
36,lander,42.83,-108.73,91.99,11,1,20.8,US,1594601146
37,maceio,-9.67,-35.74,73.4,88,75,1.12,BR,1594600946
38,pala,9.36,14.9,71.67,93,100,4.63,TD,1594601172
39,leh,34.17,77.58,55.29,40,30,5.35,IN,1594601172
40,pisco,-13.7,-76.22,61.0,87,40,4.7,PE,1594601075
41,vaini,-21.2,-175.2,71.55,77,62,26.24,TO,1594600943
42,hilo,19.73,-155.09,84.2,58,20,9.17,US,1594600992
43,cabo san lucas,22.89,-109.91,95.0,41,40,11.41,MX,1594600956
44,zhigansk,66.77,123.37,70.92,50,100,4.12,RU,1594601173
45,puerto ayora,-0.74,-90.35,68.0,91,46,7.72,EC,1594601173
46,west wendover,40.74,-114.07,98.6,6,1,8.05,US,1594601173
47,saint anthony,45.02,-93.22,82.4,39,20,3.36,US,1594601174
48,busselton,-33.65,115.33,59.0,68,98,12.8,AU,1594601140
49,guerrero negro,27.98,-114.06,78.06,49,0,20.07,MX,1594600973
50,grand-lahou,5.14,-5.02,75.2,85,56,6.67,CI,1594601174
51,saint-philippe,-21.36,55.77,66.2,72,46,8.05,RE,1594601039
52,bluff,-46.6,168.33,47.5,69,100,11.52,NZ,1594601046
53,olafsvik,64.89,-23.71,50.56,83,60,4.61,IS,1594601175
54,fortuna,40.6,-124.16,68.0,68,1,17.22,US,1594600879
55,velenje,46.36,15.11,52.0,87,0,2.06,SI,1594601175
56,butaritari,3.07,172.79,83.8,76,69,12.03,KI,1594600995
57,provideniya,64.38,-173.3,50.0,81,40,15.66,RU,1594601033
58,rio gallegos,-51.62,-69.22,33.8,80,40,23.04,AR,1594601176
59,port elizabeth,-33.92,25.57,62.6,29,0,11.41,ZA,1594601176
60,burayevo,55.84,55.41,60.37,85,0,3.85,RU,1594601176
61,dakar,14.69,-17.44,77.0,100,40,14.36,SN,1594601056
62,east london,-33.02,27.91,60.12,35,0,15.28,ZA,1594600992
63,sedniv,51.64,31.57,55.22,94,100,14.76,UA,1594601177
64,husavik,66.04,-17.34,51.8,87,20,2.24,IS,1594601177
65,mahebourg,-20.41,57.7,69.8,83,75,12.75,MU,1594601110
66,marzuq,14.4,46.47,79.7,50,77,4.97,YE,1594601177
67,namibe,-15.2,12.15,62.64,74,0,8.86,AO,1594601177
68,yellowknife,62.46,-114.35,71.6,49,75,3.36,CA,1594601056
69,tiksi,71.69,128.87,64.62,48,0,8.1,RU,1594600953
70,ostrovnoy,68.05,39.51,47.61,91,100,7.96,RU,1594601178
71,mizan teferi,6.98,35.58,61.83,91,100,0.83,ET,1594601178
72,mar del plata,-38.0,-57.56,42.8,60,0,23.04,AR,1594601127
73,carndonagh,55.25,-7.27,57.34,95,95,7.2,IE,1594601178
74,vidim,56.41,103.11,68.58,50,0,6.62,RU,1594601179
75,anadyr,64.75,177.48,57.2,76,40,4.47,RU,1594601179
76,kysyl-syr,63.9,122.76,68.58,71,100,1.01,RU,1594601179
77,caravelas,-17.71,-39.25,70.18,88,80,3.38,BR,1594600958
78,new norfolk,-42.78,147.06,44.01,92,0,1.23,AU,1594600892
79,rocky mountain house,52.37,-114.92,53.06,88,100,5.35,CA,1594601179
80,ponta do sol,32.67,-17.1,68.0,68,20,14.99,PT,1594601054
81,hirara,24.8,125.28,87.8,70,75,8.05,JP,1594601180
82,laguna,38.42,-121.42,102.99,10,1,9.17,US,1594601023
83,hasaki,35.73,140.83,72.0,93,75,3.36,JP,1594601180
84,esso,55.93,158.7,71.06,52,100,5.82,RU,1594601180
85,belaya gora,68.53,146.42,76.91,34,69,10.6,RU,1594601181
86,gat,31.61,34.76,73.99,87,1,4.59,IL,1594601181
87,severo-kurilsk,50.68,156.12,50.54,90,100,8.37,RU,1594601181
88,flinders,-34.58,150.86,57.99,77,0,8.99,AU,1594601034
89,sisimiut,66.94,-53.67,49.78,66,87,12.33,GL,1594601181
90,bredasdorp,-34.53,20.04,62.6,48,91,19.46,ZA,1594601182
91,denpasar,-8.65,115.22,77.0,100,75,3.36,ID,1594601182
92,luderitz,-26.65,15.16,51.8,87,0,5.82,NA,1594601160
93,komsomolskiy,40.43,71.72,73.4,53,69,4.7,UZ,1594601182
94,saint george,37.1,-113.58,108.0,12,1,16.11,US,1594601182
95,eureka,40.8,-124.16,72.0,1,2,5.01,US,1594600905
96,atuona,-9.8,-139.03,79.43,76,0,18.12,PF,1594601183
97,caetite,-14.07,-42.48,65.05,74,84,8.95,BR,1594601183
98,ushtobe,45.25,77.98,70.65,36,0,4.14,KZ,1594601183
99,dauphin,51.15,-100.05,77.0,61,1,5.82,CA,1594601184
100,bosaso,11.28,49.18,90.99,42,91,23.02,SO,1594600995
101,avarua,-21.21,-159.78,68.0,94,100,3.36,CK,1594601184
102,katsina,12.99,7.6,74.21,73,3,9.75,NG,1594601184
103,college,64.86,-147.8,71.6,30,75,6.93,US,1594601181
104,hithadhoo,-0.6,73.08,84.51,76,26,11.59,MV,1594601142
105,yulara,-25.24,130.99,50.0,53,0,9.17,AU,1594601185
106,saldanha,-33.01,17.94,57.2,93,65,17.22,ZA,1594601141
107,labuhan,-6.88,112.21,78.44,79,100,7.65,ID,1594601185
108,palmer,42.16,-72.33,84.2,51,40,10.29,US,1594601185
109,slobozia,46.73,29.71,57.2,87,90,14.99,MD,1594601185
110,bac lieu,9.29,105.72,82.47,78,100,5.86,VN,1594600971
111,macapa,0.04,-51.07,82.4,83,62,5.82,BR,1594601066
112,arosa,46.78,9.68,45.0,93,75,1.12,CH,1594601186
113,cape town,-33.93,18.42,59.0,93,75,28.86,ZA,1594601143
114,wanxian,30.8,108.39,77.34,83,93,4.52,CN,1594601186
115,ende,-8.84,121.66,82.06,62,81,2.21,ID,1594601187
116,clyde river,70.47,-68.59,42.8,87,20,6.93,CA,1594601025
117,nikolskoye,59.7,30.79,51.8,81,0,1.23,RU,1594601038
118,saskylakh,71.92,114.08,63.32,58,100,17.45,RU,1594600952
119,torbay,47.67,-52.73,55.99,93,90,23.04,CA,1594601110
120,ilhabela,-23.78,-45.36,74.7,61,0,5.84,BR,1594601187
121,mataura,-46.19,168.86,44.11,84,75,4.54,NZ,1594600998
122,saint-joseph,-21.37,55.62,66.2,72,27,8.05,RE,1594601188
123,tasiilaq,65.61,-37.64,37.4,86,0,9.17,GL,1594601188
124,thompson,55.74,-97.86,71.6,60,75,6.93,CA,1594601116
125,jamestown,42.1,-79.24,70.0,73,1,6.93,US,1594600928
126,ballitoville,-29.54,31.21,51.8,81,0,9.17,ZA,1594601188
127,narsaq,60.92,-46.05,51.8,57,100,4.7,GL,1594601189
128,sevojno,43.84,19.9,50.0,100,1,4.7,RS,1594601189
129,jalu,29.03,21.55,75.52,48,0,15.3,LY,1594601189
130,tsumeb,-19.23,17.72,48.96,40,0,7.14,NA,1594601189
131,tulum,20.22,-87.47,86.0,70,5,6.93,MX,1594601099
132,margate,51.38,1.39,61.0,75,1,3.13,GB,1594601190
133,dikson,73.51,80.55,41.22,96,100,5.93,RU,1594600943
134,nevelsk,46.67,141.86,59.0,87,75,13.42,RU,1594601190
135,yeppoon,-23.13,150.73,69.8,43,40,13.87,AU,1594601105
136,bandarbeyla,9.49,50.81,82.18,64,27,28.95,SO,1594601073
137,hermanus,-34.42,19.23,55.0,85,100,10.0,ZA,1594601141
138,praya,14.92,-23.51,78.8,83,75,9.17,CV,1594601191
139,comodoro rivadavia,-45.87,-67.5,41.0,60,43,16.11,AR,1594601191
140,puerto leguizamo,-0.19,-74.78,74.73,86,100,0.85,CO,1594601191
141,kavieng,-2.57,150.8,84.18,68,98,5.08,PG,1594601191
142,lompoc,34.64,-120.46,72.0,64,0,13.87,US,1594600911
143,muncie,40.19,-85.39,78.8,61,1,7.23,US,1594601042
144,vao,-22.67,167.48,72.05,78,86,18.37,NC,1594601063
145,vardo,70.37,31.11,47.08,89,0,3.47,NO,1594601192
146,vestmannaeyjar,63.44,-20.27,50.58,92,100,6.08,IS,1594601192
147,pangnirtung,66.15,-65.71,48.29,62,6,1.45,CA,1594601193
148,karratha,-20.74,116.85,67.15,25,0,19.73,AU,1594600985
149,vuktyl,63.86,57.31,57.87,75,80,11.83,RU,1594601193
150,chicama,-7.84,-79.15,62.82,82,10,4.43,PE,1594601193
151,dubbo,-32.25,148.62,46.4,79,90,5.82,AU,1594601061
152,tuktoyaktuk,69.45,-133.04,57.2,62,75,10.29,CA,1594600947
153,cortez,37.35,-108.59,98.6,11,1,11.41,US,1594601194
154,castro,-24.79,-50.01,57.96,87,0,4.79,BR,1594601194
155,barrow,71.29,-156.79,39.2,80,90,9.17,US,1594601096
156,laurel,39.1,-76.85,81.0,94,75,4.72,US,1594601166
157,geraldton,-28.77,114.6,53.6,62,0,16.11,AU,1594600916
158,flin flon,54.77,-101.86,74.86,47,92,14.2,CA,1594600966
159,easton,40.69,-75.22,73.99,78,90,21.92,US,1594601019
160,pevek,69.7,170.31,49.57,70,55,6.15,RU,1594600951
161,baykit,61.67,96.37,59.68,85,100,2.66,RU,1594601196
162,ryotsu,38.08,138.43,73.4,73,90,4.7,JP,1594601196
163,griffith,41.53,-87.42,72.0,68,75,5.82,US,1594601196
164,qaanaaq,77.48,-69.36,45.05,65,97,2.33,GL,1594601001
165,agropoli,40.35,15.0,73.0,62,0,5.01,IT,1594601197
166,airai,-8.93,125.41,66.51,72,100,6.11,TL,1594601197
167,rawson,-43.3,-65.1,39.6,69,0,19.26,AR,1594601197
168,saint-francois,46.42,3.91,53.6,76,0,1.14,FR,1594601197
169,sao filipe,14.9,-24.5,74.86,83,100,3.89,CV,1594601149
170,la solana,38.94,-3.24,73.0,78,0,8.01,ES,1594601198
171,isangel,-19.55,169.27,78.8,65,75,11.41,VU,1594600978
172,swellendam,-34.02,20.44,62.6,48,0,19.46,ZA,1594601198
173,isla vista,34.41,-119.86,88.0,60,1,10.29,US,1594601198
174,ilulissat,69.22,-51.1,48.2,70,49,1.12,GL,1594601199
175,kodiak,57.79,-152.41,57.2,62,90,9.17,US,1594601150
176,chokurdakh,70.63,147.92,72.19,43,37,9.31,RU,1594600944
177,okha,53.57,142.95,58.06,83,99,5.3,RU,1594601177
178,victoria,22.29,114.16,89.01,70,5,5.01,HK,1594601183
179,polis,35.04,32.43,75.2,94,40,4.7,CY,1594601200
180,devli,25.75,75.38,83.14,73,100,11.48,IN,1594601200
181,marinette,45.1,-87.63,75.2,56,90,5.82,US,1594601200
182,tawau,4.25,117.89,80.6,88,20,3.67,MY,1594601200
183,camabatela,-8.19,15.38,56.3,100,35,3.18,AO,1594601045
184,deputatskiy,69.3,139.9,71.13,44,28,8.81,RU,1594601200
185,guiren,33.67,118.19,72.93,87,82,8.7,CN,1594601201
186,birigui,-21.29,-50.34,72.23,53,5,2.17,BR,1594601201
187,klaksvik,62.23,-6.59,50.0,87,100,17.22,FO,1594601201
188,rundu,-17.93,19.77,44.71,47,0,4.9,NA,1594601201
189,ocos,14.51,-92.19,84.2,83,75,4.7,GT,1594601202
190,pljevlja,43.33,19.33,50.0,100,34,4.7,ME,1594601202
191,betare oya,5.6,14.08,64.67,96,51,1.57,CM,1594601202
192,abashiri,44.02,144.27,59.0,87,75,6.93,JP,1594601202
193,hofn,64.25,-15.21,51.39,86,100,7.63,IS,1594601203
194,oistins,13.07,-59.53,82.4,78,20,14.99,BB,1594601180
195,moose factory,51.26,-80.61,57.2,71,90,8.05,CA,1594601203
196,lavrentiya,65.58,-171.0,46.13,75,4,7.11,RU,1594601075
197,ashiya,34.73,135.3,69.8,88,75,6.93,JP,1594601203
198,arroyo,41.61,-4.8,63.0,87,0,6.93,ES,1594601203
199,codrington,-38.27,141.97,54.18,80,0,5.77,AU,1594600962
200,preobrazheniye,42.9,133.91,63.43,81,63,5.28,RU,1594601204
201,abu dhabi,24.47,54.37,95.0,59,9,4.7,AE,1594601204
202,naze,28.37,129.48,86.0,84,75,8.05,JP,1594601204
203,ilo,-17.64,-71.34,58.37,77,42,2.98,PE,1594601169
204,san cristobal,7.77,-72.22,66.18,87,100,1.05,VE,1594601095
205,abu samrah,35.3,37.18,70.86,70,0,11.07,SY,1594601205
206,bennington,42.88,-73.2,78.8,54,1,5.82,US,1594601205
207,jablah,35.36,35.93,77.0,73,40,9.17,SY,1594601205
208,manta,-0.95,-80.73,72.03,90,100,12.82,EC,1594601010
209,vila,42.03,-8.16,69.8,68,0,2.24,PT,1594601164
210,lewistown,40.6,-77.57,73.4,73,75,2.42,US,1594601206
211,shahrud,36.42,54.98,68.23,57,100,5.26,IR,1594601206
212,suntar,62.14,117.63,70.57,80,84,5.12,RU,1594600951
213,ixtapa,20.7,-105.2,81.0,88,90,4.7,MX,1594601207
214,neiafu,-18.65,-173.98,73.4,73,40,11.41,TO,1594600988
215,upata,8.01,-62.4,84.0,77,100,1.99,VE,1594601207
216,gamba,-2.65,10.0,71.37,91,99,7.45,GA,1594601168
217,lagoa,39.05,-27.98,68.52,81,0,14.0,PT,1594601031
218,el campo,29.2,-96.27,91.4,55,1,9.17,US,1594600974
219,cockburn town,21.46,-71.14,83.25,79,14,16.33,TC,1594601208
220,faanui,-16.48,-151.75,79.09,75,100,13.65,PF,1594600959
221,kirensk,57.79,108.11,72.01,53,84,5.35,RU,1594601208
222,saint-augustin,51.23,-58.65,61.07,97,100,12.17,CA,1594600984
223,tocoa,15.68,-86.0,76.15,90,99,0.81,HN,1594601208
224,san ramon,37.78,-121.98,99.0,20,1,12.75,US,1594601209
225,manoel urbano,-8.84,-69.26,76.39,73,2,2.35,BR,1594601209
226,bastrop,32.76,-91.87,91.4,70,40,7.29,US,1594601174
227,ajaccio,42.0,8.92,71.6,83,100,4.7,FR,1594601209
228,mitsamiouli,-11.38,43.28,77.31,73,0,4.74,KM,1594601209
229,asau,46.43,26.4,53.01,91,98,4.68,RO,1594601210
230,tshikapa,-6.42,20.8,70.92,74,68,1.23,CD,1594601210
231,aksu,41.12,80.26,74.41,32,0,2.64,CN,1594601210
232,kahului,20.89,-156.47,89.6,43,40,25.28,US,1594600945
233,khatanga,71.97,102.5,60.6,63,46,19.08,RU,1594601211
234,pahrump,36.21,-115.98,111.0,10,0,5.99,US,1594601211
235,christiana,-27.91,25.16,41.94,55,0,12.86,ZA,1594601211
236,amapa,1.0,-52.0,71.47,88,64,2.55,BR,1594601211
237,taksimo,56.34,114.88,80.1,47,4,2.26,RU,1594601211
238,palenque,17.52,-91.97,80.29,79,1,0.4,MX,1594601212
239,lodwar,3.12,35.6,81.63,54,87,10.54,KE,1594601212
240,dingle,11.0,122.67,84.13,75,100,3.36,PH,1594601212
241,rassvet,46.83,40.75,75.38,52,97,6.35,RU,1594601212
242,sault sainte marie,46.52,-84.33,62.6,72,90,10.29,CA,1594600914
243,roseto degli abruzzi,42.67,14.02,64.4,88,52,4.7,IT,1594601213
244,bambous virieux,-20.34,57.76,73.0,83,75,12.75,MU,1594601213
245,kotka,60.47,26.95,51.8,100,90,5.82,FI,1594601213
246,wajima,37.4,136.9,69.8,73,75,2.24,JP,1594601183
247,zalantun,48.0,122.72,83.05,39,87,2.01,CN,1594601213
248,carnarvon,-24.87,113.63,59.0,93,0,4.7,AU,1594601168
249,stony plain,53.53,-114.0,66.2,48,40,8.05,CA,1594601193
250,aden,12.78,45.04,85.62,83,49,5.68,YE,1594601214
251,bengkulu,-3.8,102.27,76.26,86,94,2.82,ID,1594600942
252,zhangjiakou,40.81,114.88,65.35,82,100,4.72,CN,1594601096
253,iqaluit,63.75,-68.51,55.4,71,40,10.29,CA,1594601214
254,shieli,44.17,66.75,77.41,20,0,14.67,KZ,1594601214
255,san matias,-16.37,-58.4,78.22,52,100,1.7,BO,1594601215
256,joshimath,30.57,79.57,66.65,49,35,3.04,IN,1594601215
257,carauari,-4.88,-66.9,74.59,92,100,1.74,BR,1594601215
258,castelo branco,39.82,-7.49,80.01,42,0,1.99,PT,1594601215
259,mandalay,21.97,96.08,82.4,69,75,9.17,MM,1594600982
260,samarai,-10.62,150.67,79.25,87,47,18.59,PG,1594601216
261,berlevag,70.86,29.09,47.89,86,0,3.24,NO,1594601216
262,ahipara,-35.17,173.17,60.37,81,59,11.27,NZ,1594601160
263,dong hoi,17.48,106.6,88.41,60,56,6.22,VN,1594601216
264,tommot,58.96,126.29,89.56,45,24,0.65,RU,1594600956
265,ucluelet,48.93,-125.55,64.0,67,20,17.22,CA,1594601217
266,batagay-alyta,67.8,130.41,76.96,46,40,5.17,RU,1594601217
267,itarema,-2.92,-39.92,77.81,79,16,14.63,BR,1594601217
268,bay roberts,47.6,-53.26,60.01,1,100,14.34,CA,1594601217
269,salihli,38.48,28.15,69.42,61,0,2.37,TR,1594601217
270,tilichiki,60.47,166.1,50.09,95,100,6.93,RU,1594601218
271,olinda,-8.01,-34.86,78.8,69,40,6.93,BR,1594601218
272,upernavik,72.79,-56.15,41.68,88,93,9.46,GL,1594601218
273,iquique,-20.22,-70.14,60.8,67,90,5.82,CL,1594601117
274,vila franca do campo,37.72,-25.43,68.0,72,40,5.82,PT,1594601219
275,kavaratti,10.57,72.64,82.74,74,100,9.8,IN,1594601219
276,vikhorevka,56.12,101.16,66.2,55,16,4.47,RU,1594601219
277,srandakan,-7.94,110.25,77.92,75,81,2.1,ID,1594601219
278,talcahuano,-36.72,-73.12,53.6,100,90,4.7,CL,1594600964
279,salug,8.11,122.78,83.66,69,98,1.25,PH,1594601220
280,blythe,33.61,-114.6,118.4,11,75,5.82,US,1594601088
281,cascais,38.7,-9.42,73.99,53,0,1.99,PT,1594601220
282,ust-nera,64.57,143.2,73.74,48,100,7.4,RU,1594601220
283,sechura,-5.56,-80.82,65.64,77,0,15.75,PE,1594601220
284,diffa,13.32,12.61,81.0,59,8,8.97,NE,1594601221
285,muros,42.78,-9.06,68.0,64,0,13.0,ES,1594601221
286,simpang,-1.27,104.08,73.98,98,100,1.1,ID,1594601221
287,talara,-4.58,-81.27,63.05,88,5,15.75,PE,1594601221
288,palu,-0.89,119.87,80.89,76,77,0.54,ID,1594601221
289,cayenne,4.93,-52.33,77.0,100,26,8.34,GF,1594601222
290,nyahururu,0.04,36.37,51.22,90,43,4.81,KE,1594601222
291,merauke,-8.47,140.33,79.77,78,96,16.17,ID,1594601184
292,srednekolymsk,67.45,153.68,72.16,43,6,7.99,RU,1594601222
293,sola,-13.88,167.55,80.6,78,90,23.04,VU,1594601222
294,kundiawa,-6.02,144.97,77.4,43,100,3.15,PG,1594601223
295,nola,40.92,14.53,77.0,44,0,9.17,IT,1594601223
296,bira,49.0,132.47,80.26,65,54,2.98,RU,1594601223
297,kaitong,44.81,123.15,82.44,46,100,7.56,CN,1594601223
298,coquimbo,-29.95,-71.34,55.4,82,67,3.36,CL,1594600964
299,qaqortoq,60.72,-46.03,51.8,57,100,4.7,GL,1594601223
300,sur,22.57,59.53,84.99,68,71,7.11,OM,1594601224
301,nhamunda,-2.19,-56.71,75.07,92,15,2.35,BR,1594601224
302,clyde,41.3,-82.98,73.0,82,100,1.01,US,1594601224
303,te anau,-45.42,167.72,42.24,75,3,0.11,NZ,1594601224
304,gombe,10.29,11.17,74.1,88,100,3.87,NG,1594601224
305,noyabrsk,63.2,75.45,56.5,86,100,11.59,RU,1594601225
306,swan hill,-35.34,143.55,55.29,72,0,13.44,AU,1594601095
307,biryusinsk,55.96,97.82,65.68,65,18,5.79,RU,1594601225
308,uyemskiy,64.47,40.85,50.0,100,90,1.9,RU,1594601225
309,doume,4.23,13.45,66.87,97,19,2.48,CM,1594601225
310,mawlaik,23.63,94.42,76.39,94,100,2.53,MM,1594601226
311,katsuura,35.13,140.3,73.0,76,100,1.01,JP,1594601028
312,voh,-20.97,164.7,76.44,68,99,4.16,NC,1594601226
313,tarauaca,-8.16,-70.77,76.84,69,68,1.48,BR,1594601226
314,languyan,5.26,120.08,83.8,70,100,3.8,PH,1594601226
315,sistranda,63.73,8.83,50.0,87,75,12.75,NO,1594601128
316,caraballeda,10.61,-66.85,78.15,79,13,8.41,VE,1594601117
317,alofi,-19.06,-169.92,73.4,94,32,21.92,NU,1594600951
318,utiel,39.57,-1.2,64.0,94,1,3.67,ES,1594601227
319,vanimo,-2.67,141.3,83.41,72,91,1.9,PG,1594601227
320,matara,5.95,80.54,79.14,87,100,8.66,LK,1594600999
321,dovers,12.88,-61.18,82.06,82,0,18.52,VC,1594601228
322,san carlos de bariloche,-41.15,-71.31,32.0,92,70,9.17,AR,1594601228
323,santander jimenez,24.22,-98.47,87.4,54,0,16.37,MX,1594601228
324,lianran,24.92,102.48,64.0,100,90,2.24,CN,1594601228
325,pine bluff,34.23,-92.0,87.8,62,20,4.7,US,1594601229
326,omboue,-1.57,9.26,72.68,88,100,7.99,GA,1594600998
327,yar-sale,66.83,70.83,51.37,96,100,13.04,RU,1594601059
328,dwarahat,29.78,79.43,68.88,82,2,1.74,IN,1594601229
329,gushikawa,26.35,127.87,87.8,70,1,8.05,JP,1594601229
330,kotido,2.98,34.13,65.44,80,85,4.0,UG,1594601230
331,razdolnoye,43.55,131.92,68.0,77,75,6.71,RU,1594601230
332,gainesville,29.65,-82.32,88.0,62,1,6.71,US,1594600947
333,buala,-8.14,159.59,82.4,79,100,13.85,SB,1594601230
334,itoman,26.12,127.67,87.8,74,75,10.29,JP,1594601230
335,praia da vitoria,38.73,-27.07,68.0,88,20,9.89,PT,1594600989
336,coahuayana,18.73,-103.68,69.8,88,90,17.22,MX,1594601231
337,devonport,-41.17,146.35,52.0,85,0,1.01,AU,1594601231
338,lokosovo,61.13,74.82,61.16,70,100,11.97,RU,1594601231
339,calvinia,-31.47,19.78,40.96,76,12,14.65,ZA,1594601231
340,puerto escondido,15.85,-97.07,84.2,66,90,5.82,MX,1594600980
341,genhe,50.78,121.52,85.24,37,69,1.95,CN,1594601232
342,somerset,40.57,-74.55,84.0,58,75,9.13,US,1594601232
343,kailua,21.4,-157.74,84.2,54,90,11.41,US,1594601232
344,washougal,45.58,-122.35,77.0,44,20,10.29,US,1594601232
345,nelson bay,-32.72,152.15,55.4,76,20,10.29,AU,1594601232
346,gornopravdinsk,60.05,69.9,65.48,66,99,9.04,RU,1594601227
347,guerrero,17.67,-100.0,71.4,80,85,4.05,MX,1594601107
348,henties bay,-22.12,14.28,54.0,94,0,3.0,NA,1594600957
349,cairns,-16.92,145.77,77.0,57,31,11.41,AU,1594601039
350,norman wells,65.28,-126.83,66.2,63,75,5.82,CA,1594601233
351,pemangkat,1.17,108.97,79.61,80,58,3.94,ID,1594601234
352,grindavik,63.84,-22.43,48.2,93,75,4.7,IS,1594601234
353,nanortalik,60.14,-45.24,45.97,88,100,4.23,GL,1594600945
354,coihaique,-45.58,-72.07,30.2,86,20,2.24,CL,1594601055
355,mackay,-21.15,149.2,69.8,37,75,9.17,AU,1594601032
356,promyshlennovskiy,55.48,86.2,64.4,100,0,6.71,RU,1594601234
357,cap malheureux,-19.98,57.61,73.0,74,19,8.01,MU,1594601235
358,los llanos de aridane,28.66,-17.92,71.6,73,75,10.29,ES,1594601040
359,udachnyy,66.42,112.4,64.4,55,0,6.71,RU,1594601235
360,jizan,17.33,42.67,88.72,40,20,5.06,SA,1594601235
361,manzanillo,20.34,-77.12,79.83,81,100,5.77,CU,1594601235
362,santa cruz del sur,20.71,-78.0,82.27,68,100,5.73,CU,1594601236
363,maniitsoq,65.42,-52.9,47.77,72,100,13.98,GL,1594601236
364,lastoursville,-0.81,12.73,71.29,94,67,2.42,GA,1594601236
365,kamenka,51.32,42.77,68.0,78,72,5.08,RU,1594601236
366,sao jose da coroa grande,-8.9,-35.15,74.75,79,0,8.55,BR,1594601236
367,bath,51.38,-2.36,59.0,82,26,4.09,GB,1594600965
368,puerto madryn,-42.77,-65.04,39.96,67,0,23.26,AR,1594601056
369,opuwo,-18.06,13.84,49.69,53,0,2.98,NA,1594601237
370,ozinki,51.18,49.68,74.19,54,50,8.55,RU,1594601237
371,alice springs,-23.7,133.88,52.0,53,0,6.93,AU,1594600976
372,raton,36.9,-104.44,75.2,60,75,10.29,US,1594601238
373,luanda,-8.84,13.23,68.0,88,98,3.36,AO,1594601238
374,paranaiba,-19.68,-51.19,75.33,49,63,2.57,BR,1594601238
375,katangli,51.71,143.23,56.77,83,83,6.38,RU,1594601238
376,eyl,7.98,49.82,81.61,65,35,26.8,SO,1594601238
377,karymskoye,51.62,114.35,69.93,77,82,2.82,RU,1594601238
378,nova olimpia,-14.8,-57.29,77.95,45,31,3.71,BR,1594601239
379,sibsagar,26.98,94.63,77.0,100,75,5.82,IN,1594601239
380,hamilton,39.18,-84.53,75.99,69,1,5.82,US,1594601071
381,thunder bay,48.4,-89.32,73.4,56,75,5.82,CA,1594601240
382,portland,45.52,-122.68,77.0,44,20,10.29,US,1594600552
383,ust-maya,60.42,134.53,80.38,49,92,4.7,RU,1594601240
384,la ronge,55.1,-105.28,66.2,88,90,4.7,CA,1594600982
385,tattayyangarpettai,11.13,78.45,80.6,74,40,6.93,IN,1594601240
386,montepuez,-13.13,39.0,62.51,96,51,7.11,MZ,1594601237
387,pangody,65.85,74.49,56.41,90,100,11.03,RU,1594601053
388,nichinan,31.6,131.37,77.0,88,75,4.7,JP,1594601241
389,sikasso,10.92,-7.0,74.28,91,0,4.52,ML,1594601241
390,novo aripuana,-5.12,-60.38,76.98,78,38,1.23,BR,1594601241
391,lasa,46.62,10.7,51.8,87,5,3.36,IT,1594601073
392,alcaniz,41.05,-0.13,68.0,89,0,3.0,ES,1594601242
393,richards bay,-28.78,32.04,57.65,68,0,12.84,ZA,1594601085
394,waxahachie,32.39,-96.85,95.0,53,0,3.36,US,1594601153
395,ugoofaaru,5.67,73.0,82.94,70,48,2.73,MV,1594601242
396,sribne,50.66,32.92,62.83,95,100,12.03,UA,1594601242
397,haines junction,60.75,-137.51,62.85,41,56,10.4,CA,1594601046
398,fare,-16.7,-151.02,79.48,77,100,16.13,PF,1594601243
399,gorin,51.2,136.67,77.49,60,23,2.91,RU,1594601243
400,ostersund,63.18,14.64,44.6,87,2,13.87,SE,1594601243
401,santana do acarau,-3.46,-40.21,74.46,79,1,2.04,BR,1594601243
402,broome,42.25,-75.83,71.01,88,90,11.41,US,1594601244
403,sapele,5.89,5.68,73.98,95,100,2.64,NG,1594601244
404,payo,-3.75,103.64,79.34,73,17,0.81,ID,1594601244
405,sinnamary,5.38,-52.95,78.01,88,51,8.68,GF,1594601244
406,parakou,9.34,2.63,71.98,96,100,6.11,BJ,1594601244
407,constitucion,-35.33,-72.42,52.65,84,100,5.61,CL,1594601245
408,padrauna,26.9,83.98,78.8,100,75,2.24,IN,1594601245
409,banjar,-8.19,114.97,77.0,100,75,3.36,ID,1594601245
410,bubanza,-3.12,29.4,68.27,71,25,1.07,BI,1594601245
411,trelew,-43.25,-65.31,37.89,72,0,16.58,AR,1594601072
412,bereda,43.27,-7.54,61.0,96,20,15.99,ES,1594601245
413,shache,38.42,77.24,79.88,26,85,4.32,CN,1594601246
414,adrar,20.5,-10.07,92.84,31,71,10.6,MR,1594601031
415,aklavik,68.22,-135.01,59.0,62,90,2.24,CA,1594601081
416,alcudia,39.85,3.12,77.0,50,86,4.7,ES,1594601246
417,heihe,50.24,127.49,80.6,61,23,4.47,CN,1594601247
418,mosquera,4.71,-74.23,55.4,93,75,9.17,CO,1594601247
419,powell,40.16,-83.08,73.99,69,1,6.93,US,1594600970
420,nome,64.5,-165.41,69.01,63,1,12.75,US,1594601247
421,minab,27.15,57.08,93.2,63,75,4.7,IR,1594601247
422,cilegon,-6.02,106.05,82.4,74,20,3.36,ID,1594601247
423,moree,-29.47,149.85,48.2,93,40,4.7,AU,1594601172
424,necochea,-38.55,-58.74,36.0,80,0,4.0,AR,1594601046
425,goulburn,-34.75,149.72,46.99,89,39,2.89,AU,1594601215
426,bunia,1.57,30.25,61.79,90,100,1.34,CD,1594601248
427,sarrebourg,48.73,7.05,59.0,62,4,6.93,FR,1594601249
428,gidam,18.98,81.4,77.02,88,100,1.5,IN,1594601249
429,cumra,37.57,32.77,71.6,53,0,14.99,TR,1594601249
430,rabo de peixe,37.8,-25.58,68.0,72,40,5.82,PT,1594601249
431,rayadrug,14.7,76.87,74.21,83,100,12.57,IN,1594601249
432,tessalit,20.2,1.01,88.81,33,0,12.01,ML,1594601249
433,tuatapere,-46.13,167.68,46.44,66,42,4.12,NZ,1594601250
434,matamba,-8.98,33.97,47.82,76,0,6.55,TZ,1594601250
435,eydhafushi,5.1,73.07,83.07,70,9,2.42,MV,1594601091
436,tual,-5.67,132.75,79.14,81,11,22.75,ID,1594601189
437,ketchikan,55.34,-131.65,60.8,72,90,9.17,US,1594601175
438,tolstoy-yurt,43.44,45.77,66.2,93,0,3.58,RU,1594601251
439,selyatino,55.52,36.98,59.0,93,90,6.71,RU,1594601251
440,yabelo,4.88,38.08,59.41,83,98,7.43,ET,1594601251
441,hami,42.8,93.45,79.79,31,84,6.93,CN,1594601052
442,catuday,16.29,119.81,82.69,77,100,4.52,PH,1594601252
443,mayumba,-3.43,10.66,71.56,88,100,3.89,GA,1594601079
444,limbang,4.75,115.0,80.6,83,75,1.12,MY,1594601252
445,maymyo,22.03,96.47,82.4,74,75,9.17,MM,1594601252
446,port hardy,50.7,-127.42,59.0,82,75,8.05,CA,1594601252
447,van buren,35.44,-94.35,93.2,38,1,8.05,US,1594601093
448,novoilinsk,51.68,108.71,70.63,69,28,2.53,RU,1594601253
449,kizukuri,40.81,140.39,73.99,72,20,4.7,JP,1594601247
450,taoudenni,22.68,-3.98,94.5,33,13,6.04,ML,1594601168
451,aljezur,37.32,-8.8,75.99,51,0,6.53,PT,1594601253
452,reo,12.32,-2.47,75.38,80,100,13.53,BF,1594601254
453,padang,-0.95,100.35,77.74,81,100,4.61,ID,1594601254
454,nuuk,64.18,-51.72,51.01,66,76,5.01,GL,1594601254
455,corinto,37.94,22.96,75.99,45,0,1.01,GR,1594601254
456,leshukonskoye,64.9,45.76,48.83,94,44,2.62,RU,1594601254
457,kunya,12.22,8.53,73.4,94,55,6.93,NG,1594601255
458,kieta,-6.22,155.63,79.23,83,100,8.81,PG,1594601001
459,umm lajj,25.02,37.27,82.96,74,99,7.05,SA,1594601255
460,auki,-8.77,160.7,84.6,70,79,6.11,SB,1594601255
461,taltal,-25.4,-70.48,55.98,78,43,3.8,CL,1594601061
462,nhulunbuy,-12.23,136.77,78.8,54,75,26.4,AU,1594601256
463,spasskoye,44.61,132.8,70.93,74,3,5.59,RU,1594601256
464,magistralnyy,56.17,107.45,71.13,53,86,5.84,RU,1594601256
465,kalamnuri,19.67,77.33,78.15,79,100,9.46,IN,1594601256
466,baturaja,-4.13,104.17,78.62,77,92,2.35,ID,1594601256
467,salalah,17.02,54.09,80.6,94,90,3.36,OM,1594601257
468,saint-pierre,-21.34,55.48,66.2,72,4,8.05,RE,1594601257
469,severo-yeniseyskiy,60.37,93.04,66.85,57,0,6.38,RU,1594601257
470,black river,18.03,-77.85,82.0,83,20,3.36,JM,1594601054
471,yugawara,35.15,139.07,73.99,89,100,1.01,JP,1594601257
472,kapenguria,1.25,35.09,54.27,87,6,4.23,KE,1594601258
473,luebo,-5.35,21.42,67.55,92,98,1.05,CD,1594601258
474,kajaani,64.23,27.73,50.0,100,100,3.36,FI,1594601258
475,lagos,6.58,3.75,77.0,94,20,3.36,NG,1594601086
476,sakakah,29.97,40.21,79.95,28,0,9.69,SA,1594601258
477,chipinge,-20.19,32.62,43.25,93,0,3.27,ZW,1594601259
478,harper,4.38,-7.72,74.84,81,87,7.61,LR,1594601259
479,san vicente,-26.62,-54.13,59.29,100,30,2.57,AR,1594601259
480,meulaboh,4.14,96.13,77.9,76,100,2.53,ID,1594601229
481,mount isa,-20.73,139.5,57.2,35,0,18.34,AU,1594601259
482,tres arroyos,-38.37,-60.28,38.55,70,52,12.21,AR,1594601259
483,atherton,53.52,-2.49,60.01,65,27,3.56,GB,1594601260
484,ranong,9.97,98.63,75.2,94,75,4.32,TH,1594601260
485,bulgan,48.81,103.53,63.09,78,0,3.18,MN,1594601260
486,micheweni,-4.97,39.83,76.1,78,0,12.57,TZ,1594601260
487,kaitangata,-46.28,169.85,46.99,64,24,8.01,NZ,1594601047
488,rocha,-34.48,-54.33,41.72,67,12,9.19,UY,1594601261
489,dzhubga,44.32,38.7,72.09,79,6,4.76,RU,1594601261
490,huilong,31.81,121.66,88.0,78,100,13.15,CN,1594601261
491,egersund,58.45,6.0,51.01,99,100,1.01,NO,1594601036
492,masallatah,32.62,14.0,68.68,83,0,1.01,LY,1594601262
493,norton shores,43.17,-86.26,77.0,44,20,11.41,US,1594601262
494,port blair,11.67,92.75,82.69,78,100,14.47,IN,1594601262
495,montrose,38.42,-108.27,95.0,14,1,8.05,US,1594601262
496,forio,40.73,13.86,78.01,72,11,1.99,IT,1594601262
497,houston,29.76,-95.36,96.01,49,1,5.82,US,1594601125
498,callaway,30.15,-85.57,86.0,66,1,10.29,US,1594601263
499,tarko-sale,64.92,77.78,55.99,80,100,11.07,RU,1594601263
500,ulagan,50.63,87.96,57.47,73,100,0.69,RU,1594601263
501,sao benedito do rio preto,-3.33,-43.53,73.35,88,0,2.77,BR,1594601263
502,sumbe,-11.21,13.84,69.6,90,48,5.19,AO,1594601264
503,marrakesh,31.63,-8.01,84.2,42,20,3.36,MA,1594600988
504,kremasti,36.41,28.12,78.8,69,0,13.87,GR,1594601264
505,nouadhibou,20.93,-17.03,73.4,78,0,8.05,MR,1594600999
506,caconda,-13.73,15.07,49.91,48,0,2.13,AO,1594601264
507,boysun,38.21,67.2,68.05,41,77,1.9,UZ,1594601265
508,svetlaya,46.54,138.33,65.79,66,34,5.19,RU,1594601265
509,honningsvag,70.98,25.97,49.48,81,12,5.68,NO,1594601265
510,tabas,33.6,56.92,86.0,20,76,6.93,IR,1594601265
511,moussoro,13.64,16.49,83.98,52,30,11.43,TD,1594601265
512,lorengau,-2.02,147.27,85.59,62,50,4.38,PG,1594601266
513,gao,16.64,1.64,91.71,31,65,9.42,ML,1594601266
514,tytuvenai,55.6,23.2,46.4,100,0,5.82,LT,1594601266
515,marsh harbour,26.54,-77.06,82.65,73,85,15.28,BS,1594601266
516,manaure,11.78,-72.44,82.8,69,11,14.7,CO,1594601266
517,hanyang,32.14,105.51,75.74,81,85,3.85,CN,1594601266
518,poum,-20.23,164.02,73.87,76,45,9.71,NC,1594600988
519,taunggyi,20.78,97.03,63.88,100,100,4.41,MM,1594601267
520,lungi,9.22,-12.68,72.61,97,100,3.58,SL,1594601267
521,champerico,14.3,-91.92,82.26,75,51,6.67,GT,1594601267
522,launceston,-41.45,147.17,48.99,81,40,12.75,AU,1594601267
523,phalaborwa,-23.94,31.14,47.55,64,0,3.44,ZA,1594601268
524,pochutla,15.74,-96.47,82.99,78,99,2.24,MX,1594601268
525,touros,-5.2,-35.46,71.6,94,20,3.36,BR,1594601268
526,fort-shevchenko,44.51,50.26,81.61,41,0,15.46,KZ,1594601268
527,strezhevoy,60.73,77.59,59.0,93,5,4.47,RU,1594601268
528,puerto colombia,10.99,-74.95,80.6,83,75,8.05,CO,1594601215
529,portobelo,9.55,-79.65,82.0,78,80,7.0,PA,1594601269
530,freeport,40.66,-73.58,81.0,61,1,13.87,US,1594601260
531,sandakan,5.84,118.12,80.6,88,20,3.36,MY,1594601269
532,westport,41.14,-73.36,82.99,61,1,8.05,US,1594601269
533,asyut,27.18,31.18,77.72,51,0,10.07,EG,1594601269
534,kattivakkam,13.22,80.32,77.0,100,90,5.82,IN,1594601270
535,qandala,11.47,49.87,90.59,47,75,10.36,SO,1594601270
536,santa rosa,14.31,121.11,82.0,83,75,5.82,PH,1594600975
537,namatanai,-3.67,152.43,79.43,79,100,4.81,PG,1594601087
538,kuusalu,59.44,25.44,53.01,93,100,2.24,EE,1594601270
539,darnah,32.77,22.64,74.37,83,0,17.85,LY,1594601271
540,high level,58.52,-117.14,68.0,52,90,6.93,CA,1594601271
541,nador,35.17,-2.93,75.2,94,90,3.36,MA,1594601185
542,rio verde de mato grosso,-18.92,-54.84,75.4,53,27,2.15,BR,1594601271
543,batangafo,7.3,18.28,70.21,96,100,1.1,CF,1594601271
544,vostok,46.49,135.88,66.96,85,77,2.77,RU,1594601272
545,cheyenne,41.14,-104.82,87.8,12,1,13.87,US,1594601272
546,turbat,26.0,63.04,81.37,79,100,4.34,PK,1594601272
547,lata,40.16,-8.33,72.0,73,0,2.75,PT,1594601139
548,quatre cocos,-20.21,57.76,73.0,83,75,12.75,MU,1594601273
549,nha trang,12.25,109.18,87.8,70,20,2.24,VN,1594601273
550,kuminskiy,58.67,66.57,66.06,74,53,7.99,RU,1594601273
551,bella vista,36.43,-94.23,87.8,42,1,8.05,US,1594601273
552,shelburne,44.08,-80.2,69.8,73,40,5.82,CA,1594601273
553,huarmey,-10.07,-78.15,62.15,83,36,6.24,PE,1594601274
554,sungaipenuh,-2.08,101.38,68.74,90,100,1.14,ID,1594601168
555,doka,13.52,35.77,70.68,89,100,17.18,SD,1594601183
556,cordoba,-31.41,-64.18,46.99,64,100,6.93,AR,1594601239
557,koran,43.81,18.57,59.0,82,40,2.3,BA,1594601166
558,sidi ali,36.1,0.42,75.74,71,73,1.45,DZ,1594601274
559,dabakala,8.37,-4.43,70.2,94,77,3.58,CI,1594601275
560,stokmarknes,68.56,14.91,50.0,81,88,4.0,NO,1594601275
561,santa maria,-29.68,-53.81,53.6,100,21,2.24,BR,1594601016
